City_ID,City,Country,Lat,Lng,Max Temp,Humidity,Cloudiness,Wind Speed,Date
0,Hilo,US,19.7297,-155.09,79.29,82,40,16.11,2023-04-19 19:32:04
1,Sandnessjoen,NO,66.0217,12.6316,44.65,89,75,8.05,2023-04-19 19:35:54
2,Mont-Dore,NC,-22.2833,166.5833,78.01,99,35,3.18,2023-04-19 19:35:56
3,Alofi,NU,-19.0595,-169.9187,76.89,100,100,6.91,2023-04-19 19:35:57
4,Port-Aux-Francais,TF,-49.35,70.2167,41.05,68,52,34.9,2023-04-19 19:35:58
5,Edinburgh Of The Seven Seas,SH,-37.0676,-12.3116,64.44,74,100,21.65,2023-04-19 19:35:59
6,Daru,PG,-9.0763,143.2092,77.29,86,92,5.3,2023-04-19 19:36:00
7,Bumba,CD,2.1833,22.4667,78.42,69,95,3.04,2023-04-19 19:36:02
8,Yellowknife,CA,62.456,-114.3525,37.92,48,0,9.22,2023-04-19 19:36:03
9,Eureka,US,40.8021,-124.1637,56.19,58,17,5.01,2023-04-19 19:33:20
10,Sinabang,ID,2.4803,96.3801,80.71,79,100,5.01,2023-04-19 19:36:05
11,Isangel,VU,-19.55,169.2667,77.59,75,100,2.37,2023-04-19 19:36:07
12,Blackmans Bay,AU,-43.0167,147.3167,49.73,74,93,8.59,2023-04-19 19:36:08
13,Puerto Natales,CL,-51.7236,-72.4875,55.85,50,75,32.21,2023-04-19 19:31:26
14,Avarua,CK,-21.2078,-159.775,77.05,88,100,6.91,2023-04-19 19:36:10
15,Yaren,NR,-0.5472,166.916,83.57,74,100,12.53,2023-04-19 19:36:12
16,Onega,RU,63.9061,38.1404,34.07,98,99,7.34,2023-04-19 19:36:13
17,Waitangi,NZ,-43.9535,-176.5597,61.83,92,100,8.99,2023-04-19 19:36:14
18,Adamstown,PN,-25.066,-130.1015,76.82,75,70,7.94,2023-04-19 19:36:16
19,Sisimiut,GL,66.9395,-53.6735,21.43,79,92,6.2,2023-04-19 19:36:17
20,Taltal,CL,-25.4,-70.4833,69.04,69,24,3.8,2023-04-19 19:36:18
21,Severo-Yeniseyskiy,RU,60.3725,93.0408,0.16,100,97,4.43,2023-04-19 19:36:19
22,Afaahiti,PF,-17.75,-149.2833,85.87,80,100,18.28,2023-04-19 19:36:21
23,Margaret River,AU,-33.95,115.0667,54.84,62,0,7.76,2023-04-19 19:36:22
24,Kapuskasing,CA,49.4169,-82.4331,30.29,74,75,18.41,2023-04-19 19:36:23
25,Punta Arenas,CL,-53.15,-70.9167,53.62,62,40,37.98,2023-04-19 19:36:24
26,Tabas,IR,33.5959,56.9244,70.02,19,0,4.61,2023-04-19 19:36:25
27,Newman,US,37.3138,-121.0208,62.24,49,1,8.01,2023-04-19 19:36:27
28,Wailua Homesteads,US,22.0669,-159.378,77.76,69,20,8.05,2023-04-19 19:36:28
29,Remire-Montjoly,GF,4.9167,-52.2667,77.04,94,20,4.61,2023-04-19 19:36:29
30,West Island,CC,-12.1568,96.8225,80.56,82,100,22.66,2023-04-19 19:36:30
31,Utrik,MH,11.2278,169.8474,79.84,79,100,19.8,2023-04-19 19:36:32
32,Ilulissat,GL,69.2167,-51.1,23.02,86,100,5.75,2023-04-19 19:36:33
33,Olonkinbyen,SJ,70.9221,-8.7187,35.56,92,11,18.14,2023-04-19 19:36:34
34,Puerto Ayora,EC,-0.7393,-90.3518,85.96,100,100,11.01,2023-04-19 19:36:35
35,Abalak,RU,58.1286,68.5944,27.18,62,28,4.74,2023-04-19 19:36:37
36,Hawaiian Paradise Park,US,19.5933,-154.9731,76.89,94,40,16.11,2023-04-19 19:36:38
37,Walvis Bay,NA,-22.9575,14.5053,69.94,56,5,10.38,2023-04-19 19:35:25
38,Luena,AO,-11.7833,19.9167,63.73,68,14,4.23,2023-04-19 19:36:40
39,Tolanaro,MG,-25.0319,46.9987,75.27,88,20,6.91,2023-04-19 19:36:42
40,Nova Vicosa,BR,-17.8919,-39.3719,83.23,81,17,13.58,2023-04-19 19:36:43
41,Djibouti,DJ,11.5,42.5,75.58,75,21,13.58,2023-04-19 19:36:44
42,Kas,TR,36.2018,29.6377,58.1,72,0,10.42,2023-04-19 19:36:45
43,Cardigan,GB,52.0847,-4.6591,57.13,74,6,19.6,2023-04-19 19:36:46
44,Bredasdorp,ZA,-34.5322,20.0403,62.62,65,100,2.64,2023-04-19 19:36:48
45,Kapa'A,US,22.0752,-159.319,79.11,68,20,8.05,2023-04-19 19:36:49
46,Hermanus,ZA,-34.4187,19.2345,57.79,76,99,4.99,2023-04-19 19:36:50
47,Kodiak,US,57.79,-152.4072,38.71,65,75,11.5,2023-04-19 19:33:15
48,Uturoa,PF,-16.7333,-151.4333,82.35,79,73,16.11,2023-04-19 19:36:53
49,Stephenville,US,32.2207,-98.2023,86.25,49,40,17.27,2023-04-19 19:36:19
50,Arar,SA,30.9753,41.0381,73.42,43,75,3.44,2023-04-19 19:34:37
51,Thompson,CA,55.7435,-97.8558,30.36,51,75,13.8,2023-04-19 19:37:56
52,Hammerfest,NO,70.6634,23.6821,41.45,93,75,27.63,2023-04-19 19:37:58
53,Dabakala,CI,8.3667,-4.4333,77.31,70,49,2.35,2023-04-19 19:37:59
54,Kodinar,IN,20.7903,70.7031,81.05,55,17,11.61,2023-04-19 19:38:00
55,Jamestown,US,42.097,-79.2353,56.52,56,0,5.99,2023-04-19 19:38:02
56,Minas De Marcona,PE,-15.2119,-75.1103,70.18,58,4,13.96,2023-04-19 19:38:03
57,Verkhnevilyuysk,RU,63.4453,120.3167,4.28,99,89,3.58,2023-04-19 19:38:04
58,Port Mathurin,MU,-19.6833,63.4167,78.85,77,23,19.13,2023-04-19 19:38:06
59,Iqaluit,CA,63.7506,-68.5145,15.53,92,100,0.0,2023-04-19 19:38:07
60,Palembang,ID,-2.9167,104.7458,80.69,94,40,0.0,2023-04-19 19:38:08
61,Georgetown,MY,5.4112,100.3354,84.15,77,20,3.44,2023-04-19 19:35:30
62,Grytviken,GS,-54.2811,-36.5092,37.99,95,100,4.14,2023-04-19 19:38:11
63,Coquimbo,CL,-29.9533,-71.3436,65.93,68,0,14.97,2023-04-19 19:38:12
64,Longyearbyen,SJ,78.2186,15.6401,19.24,63,20,14.97,2023-04-19 19:38:13
65,Queenstown,ZA,-31.8976,26.8753,63.59,27,6,7.38,2023-04-19 19:38:14
66,Prado,BR,-17.3411,-39.2208,81.5,86,25,14.47,2023-04-19 19:38:15
67,College,US,64.8569,-147.8028,31.89,51,40,6.91,2023-04-19 19:38:17
68,Bilibino,RU,68.0546,166.4372,23.5,87,100,2.46,2023-04-19 19:38:18
69,Ankang,CN,32.68,109.0172,70.99,75,53,3.83,2023-04-19 19:38:19
70,Crane,US,31.3974,-102.3501,88.45,9,0,15.77,2023-04-19 19:38:21
71,Atafu Village,TK,-8.5421,-172.5159,82.85,72,100,7.18,2023-04-19 19:38:22
72,Bethel,US,41.3712,-73.414,57.88,49,75,12.66,2023-04-19 19:35:48
73,Ben Gardane,TN,33.1378,11.2197,70.68,51,22,11.21,2023-04-19 19:38:24
74,Beyneu,KZ,45.3167,55.2,51.82,34,99,16.11,2023-04-19 19:38:26
75,Balamban,PH,10.4667,123.7833,77.45,84,13,2.19,2023-04-19 19:38:27
76,Gizo,SB,-8.103,156.8419,80.71,67,22,3.74,2023-04-19 19:38:28
77,Bamboo Flat,IN,11.7,92.7167,80.92,83,23,7.56,2023-04-19 19:38:29
78,Ushuaia,AR,-54.8,-68.3,49.62,81,75,27.63,2023-04-19 19:35:22
79,Tazovsky,RU,67.4667,78.7,11.84,98,99,4.52,2023-04-19 19:38:32
80,Yantzaza,EC,-3.8278,-78.7594,86.02,49,87,3.36,2023-04-19 19:38:33
81,Vorgashor,RU,67.5833,63.95,19.0,97,100,7.81,2023-04-19 19:38:34
82,Whitehorse,CA,60.7161,-135.0538,42.03,64,75,0.0,2023-04-19 19:38:36
83,Port Lincoln,AU,-34.7333,135.8667,58.68,67,100,5.79,2023-04-19 19:38:37
84,Papatowai,NZ,-46.5619,169.4708,48.83,94,92,5.7,2023-04-19 19:38:38
85,Alesund,NO,62.4723,6.1549,52.9,86,0,12.66,2023-04-19 19:38:39
86,Usogorsk,RU,63.4106,48.6872,31.23,91,100,4.83,2023-04-19 19:38:40
87,Albany,US,42.6001,-73.9662,45.95,64,90,1.01,2023-04-19 19:38:35
88,Konarka,IN,19.9,86.1167,84.6,81,0,17.4,2023-04-19 19:38:43
89,Pisco,PE,-13.7,-76.2167,77.05,69,0,17.27,2023-04-19 19:38:44
90,Carnarvon,AU,-24.8667,113.6333,74.28,43,74,13.67,2023-04-19 19:38:45
91,Zouerate,MR,22.7187,-12.4521,79.75,25,0,9.84,2023-04-19 19:38:46
92,Codrington,AU,-38.2667,141.9667,52.14,83,100,8.39,2023-04-19 19:38:48
93,Isiolo,KE,0.3546,37.5822,68.86,79,37,7.09,2023-04-19 19:38:49
94,Stanley,GB,54.868,-1.6985,44.28,92,75,6.91,2023-04-19 19:33:55
95,Porto Novo,BJ,6.4965,2.6036,82.22,76,74,5.37,2023-04-19 19:38:52
96,Cill Airne,IE,52.05,-9.5167,48.4,91,90,5.3,2023-04-19 19:38:53
97,Port Saint John'S,ZA,-31.6229,29.5448,72.0,30,0,5.82,2023-04-19 19:39:54
98,Badger,US,64.8,-147.5333,31.8,49,40,6.91,2023-04-19 19:39:55
99,Mount Pearl,CA,47.5166,-52.7813,36.95,88,100,12.66,2023-04-19 19:39:56
100,Calgary,CA,51.0501,-114.0853,48.33,62,100,8.05,2023-04-19 19:36:48
101,Krivosheino,RU,57.3431,83.9261,19.53,97,96,5.06,2023-04-19 19:39:59
102,Port Elizabeth,ZA,-33.918,25.5701,70.32,76,0,6.91,2023-04-19 19:40:00
103,Enewetak,MH,11.3474,162.3373,79.39,82,100,23.51,2023-04-19 19:40:01
104,Isetskoye,RU,56.4858,65.3226,32.2,57,9,5.77,2023-04-19 19:40:03
105,Anadyr,RU,64.75,177.4833,25.3,85,40,8.95,2023-04-19 19:40:04
106,Barcelos,PT,41.5388,-8.6151,64.92,91,76,1.61,2023-04-19 19:40:06
107,Hithadhoo,MV,-0.6,73.0833,83.59,70,100,3.51,2023-04-19 19:40:07
108,Yemetsk,RU,63.4721,41.7941,33.37,96,100,4.43,2023-04-19 19:40:09
109,Inhambane,MZ,-23.865,35.3833,69.78,94,20,3.44,2023-04-19 19:40:10
110,Carbonear,CA,47.7332,-53.2148,39.15,81,100,11.99,2023-04-19 19:40:11
111,Bhayavadar,IN,21.85,70.25,81.59,50,54,9.19,2023-04-19 19:40:12
112,Kaspiyskiy,RU,45.3929,47.3707,53.82,61,33,15.55,2023-04-19 19:40:13
113,Ust-Nera,RU,64.5667,143.2,6.82,99,100,7.49,2023-04-19 19:40:15
114,Selfoss,IS,63.9331,-20.9971,49.17,89,76,10.8,2023-04-19 19:40:16
115,Udachny,RU,66.4167,112.4,0.27,100,100,3.56,2023-04-19 19:40:18
116,Nemuro,JP,43.3236,145.575,38.35,93,92,7.02,2023-04-19 19:40:19
117,Dunedin,NZ,-45.8742,170.5036,54.81,95,23,1.99,2023-04-19 19:40:20
118,Petropavlovsk-Kamchatsky,RU,53.0452,158.6483,34.39,75,75,8.95,2023-04-19 19:40:21
119,Wynyard,AU,-41.0,145.7167,51.84,94,100,4.38,2023-04-19 19:40:23
120,Acapulco De Juarez,MX,16.8634,-99.8901,87.62,62,0,3.44,2023-04-19 19:35:31
121,Vila Velha,BR,-20.3297,-40.2925,93.15,74,20,8.01,2023-04-19 19:40:25
122,Inirida,CO,3.8653,-67.9239,89.42,51,96,4.34,2023-04-19 19:40:26
123,Rio Preto Da Eva,BR,-2.6994,-59.6997,82.67,74,100,3.8,2023-04-19 19:40:28
124,Dudinka,RU,69.4058,86.1778,-7.19,100,99,4.45,2023-04-19 19:40:29
125,Port Macquarie,AU,-31.4333,152.9167,58.89,91,54,3.22,2023-04-19 19:40:30
126,Ribeira Grande,PT,38.5167,-28.7,58.77,77,40,13.8,2023-04-19 19:39:47
127,Ketchikan,US,55.3422,-131.6461,54.07,37,20,13.8,2023-04-19 19:35:38
128,Lihue,US,21.9789,-159.3672,78.37,69,20,8.05,2023-04-19 19:39:42
129,Gisborne,NZ,-38.6533,178.0042,60.48,83,13,7.07,2023-04-19 19:40:35
130,Vadso,NO,70.0744,29.7487,41.88,75,75,18.41,2023-04-19 19:40:36
131,Magole,TZ,-6.3667,37.3667,70.21,96,100,1.25,2023-04-19 19:40:37
132,Totness,SR,5.8833,-56.3167,81.75,74,48,10.76,2023-04-19 19:40:38
133,Yoko,CM,5.5333,12.3167,69.67,87,100,1.36,2023-04-19 19:40:40
134,Kemijarvi,FI,66.7131,27.4306,34.74,100,100,4.88,2023-04-19 19:40:41
135,Mount Gambier,AU,-37.8333,140.7667,53.29,83,99,4.47,2023-04-19 19:40:42
136,El Matama,SD,16.7095,33.3565,88.54,7,0,10.45,2023-04-19 19:40:43
137,Kavaratti,IN,10.5669,72.642,82.89,75,3,8.37,2023-04-19 19:40:45
138,Port Douglas,AU,-16.4833,145.4667,75.02,84,21,6.24,2023-04-19 19:40:46
139,Makokou,GA,0.5738,12.8642,74.39,85,99,1.77,2023-04-19 19:40:47
140,Ji'An,CN,27.1172,114.9793,68.94,95,2,0.87,2023-04-19 19:40:48
141,Vilyuchinsk,RU,52.9306,158.4028,35.87,80,100,7.54,2023-04-19 19:40:50
142,Alto Parana,BR,-23.1289,-52.3189,67.05,72,0,11.23,2023-04-19 19:40:51
143,Susuman,RU,62.7833,148.1667,12.27,95,100,5.12,2023-04-19 19:40:52
144,Tokar,SD,18.4254,37.729,77.36,68,0,6.11,2023-04-19 19:40:53
145,Geraldton,AU,-28.7667,114.6,64.81,48,42,9.22,2023-04-19 19:40:54
146,Ebon,MH,4.582,168.6964,82.29,80,79,14.88,2023-04-19 19:42:27
147,Filiatra,GR,37.15,21.5833,54.75,79,11,11.05,2023-04-19 19:42:28
148,Banda Aceh,ID,5.5577,95.3222,80.69,80,95,8.59,2023-04-19 19:42:29
149,Kigorobya,UG,1.6162,31.3089,69.49,79,100,5.86,2023-04-19 19:42:31
150,Abu Tij,EG,27.0441,31.319,89.74,13,100,4.27,2023-04-19 19:42:32
151,Tshabong,BW,-26.05,22.45,69.33,24,11,9.84,2023-04-19 19:42:34
152,Keetmanshoop,NA,-26.5833,18.1333,75.76,29,98,4.23,2023-04-19 19:42:35
153,Auki,SB,-8.7676,160.7034,76.64,81,11,1.79,2023-04-19 19:42:36
154,Kerikeri,NZ,-35.2268,173.9474,67.91,97,90,3.0,2023-04-19 19:42:37
155,Cockburn Town,TC,21.4612,-71.1419,78.93,76,0,12.12,2023-04-19 19:42:39
156,Sidney,AU,-33.8679,151.2073,65.62,84,75,23.02,2023-04-19 19:39:52
157,Bima,ID,-8.4667,118.7167,77.18,92,92,4.43,2023-04-19 19:42:41
158,Kokstad,ZA,-30.5472,29.4241,56.73,28,0,4.85,2023-04-19 19:42:43
159,Quellon,CL,-43.1167,-73.6167,57.45,100,100,4.61,2023-04-19 19:42:45
160,Ambon,ID,-3.6954,128.1814,77.14,94,20,5.75,2023-04-19 19:42:37
161,Margate,GB,51.3813,1.3862,49.89,76,0,10.0,2023-04-19 19:42:47
162,Hamilton,US,39.1834,-84.5333,80.62,34,40,11.5,2023-04-19 19:41:50
163,Farah,AF,32.5,62.5,56.23,33,0,4.23,2023-04-19 19:42:50
164,San Patricio,US,28.017,-97.5169,81.88,64,97,18.81,2023-04-19 19:42:51
165,Talnakh,RU,69.4865,88.3972,1.13,93,97,5.97,2023-04-19 19:42:52
166,Chibougamau,CA,49.9168,-74.3659,28.02,69,100,10.36,2023-04-19 19:40:03
167,Laguna,US,38.421,-121.4238,63.43,45,0,8.05,2023-04-19 19:42:55
168,Nikel,RU,69.4128,30.222,41.18,85,100,17.13,2023-04-19 19:42:56
169,Beykonak,TR,36.3257,30.303,60.96,76,0,3.51,2023-04-19 19:42:57
170,Poronaysk,RU,49.2167,143.1167,36.18,74,8,2.68,2023-04-19 19:42:58
171,Nova Sintra,CV,14.8667,-24.7167,68.29,77,75,15.39,2023-04-19 19:42:59
172,Ilha De Mocambique,MZ,-15.0342,40.7358,80.47,74,16,13.2,2023-04-19 19:43:01
173,Pedernales,DO,18.0384,-71.744,83.14,62,27,4.99,2023-04-19 19:43:02
174,Ugoofaaru,MV,5.6667,73.0,82.85,75,21,3.11,2023-04-19 19:43:03
175,Morshansk,RU,53.4435,41.8107,50.49,47,100,5.46,2023-04-19 19:43:05
176,Tual,ID,-5.6667,132.75,82.69,74,30,11.5,2023-04-19 19:40:42
177,Mohr,DE,54.3528,9.7167,48.34,56,20,11.5,2023-04-19 19:43:07
178,Flying Fish Cove,CX,-10.4217,105.6791,79.97,80,90,18.39,2023-04-19 19:43:08
179,Guichon,UY,-32.35,-57.2,59.4,52,72,14.0,2023-04-19 19:43:10
180,Soufriere,LC,13.8562,-61.0566,85.66,67,20,23.02,2023-04-19 19:43:11
181,Ancud,CL,-41.8697,-73.8203,58.51,87,92,5.77,2023-04-19 19:40:27
182,Lebu,CL,-37.6167,-73.65,58.19,82,93,20.0,2023-04-19 19:43:13
183,Bahia Blanca,AR,-38.7196,-62.2724,68.07,44,0,8.03,2023-04-19 19:40:08
184,Zaxo,IQ,37.1482,42.7001,68.52,43,99,6.24,2023-04-19 19:43:16
185,Rumoi,JP,43.9344,141.6428,42.57,86,100,5.91,2023-04-19 19:43:18
186,Santa Ana De Yacuma,BO,-13.75,-65.4333,91.35,58,75,11.5,2023-04-19 19:43:19
187,Murzuq,LY,25.9155,13.9184,74.07,15,0,10.13,2023-04-19 19:43:20
188,Sitka,US,57.0531,-135.33,49.89,46,40,6.91,2023-04-19 19:43:21
189,Pacific Grove,US,36.6177,-121.9166,62.55,62,0,9.22,2023-04-19 19:41:45
190,Vernon,CA,50.2581,-119.2691,54.75,44,100,2.3,2023-04-19 19:42:29
191,Vila Franca Do Campo,PT,37.7167,-25.4333,63.01,88,98,25.14,2023-04-19 19:41:52
192,Zaozersk,RU,69.4005,32.4476,37.17,93,100,18.92,2023-04-19 19:44:26
193,Qaqortoq,GL,60.7167,-46.0333,33.39,89,85,3.53,2023-04-19 19:44:28
194,Tiznit,MA,29.5833,-9.5,59.04,77,50,6.85,2023-04-19 19:44:29
195,Hualien City,TW,23.9769,121.6044,77.22,80,100,4.07,2023-04-19 19:44:31
196,Edmond,US,35.6528,-97.4781,86.92,49,37,15.99,2023-04-19 19:44:32
197,Albina,SR,5.5,-54.05,81.1,78,99,6.13,2023-04-19 19:44:33
198,Mountain Home,US,43.133,-115.6912,49.42,33,20,7.0,2023-04-19 19:41:20
199,Birao,CF,10.2849,22.7882,90.18,12,65,5.53,2023-04-19 19:44:36
200,Lethem,GY,3.3803,-59.7968,93.16,40,95,7.67,2023-04-19 19:44:37
201,Lumphat,KH,13.4878,106.9816,78.73,79,0,0.63,2023-04-19 19:44:38
202,Shalqar,KZ,47.8333,59.6,50.23,37,92,6.06,2023-04-19 19:48:46
203,San Antonio De Pale,GQ,-1.4014,5.6325,83.35,81,98,11.59,2023-04-19 19:48:48
204,Bontang,ID,0.1333,117.5,79.2,83,100,1.5,2023-04-19 19:48:49
205,Isafjordur,IS,66.0755,-23.124,46.02,95,100,3.56,2023-04-19 19:48:50
206,Keflavik,IS,64.0049,-22.5624,51.71,100,100,23.02,2023-04-19 19:48:52
207,Swakopmund,NA,-22.6833,14.5333,66.65,71,5,7.14,2023-04-19 19:48:53
208,Moab,US,38.5733,-109.5498,50.61,35,93,14.41,2023-04-19 19:48:54
209,Chui,UY,-33.6971,-53.4616,57.72,69,74,11.03,2023-04-19 19:48:56
210,Chagoda,RU,59.164,35.3285,40.28,90,15,4.99,2023-04-19 19:48:57
211,Leava,WF,-14.3,-178.1667,83.39,72,100,10.51,2023-04-19 19:48:59
212,Peace River,CA,56.2501,-117.286,46.71,53,75,11.5,2023-04-19 19:49:00
213,Greenville,US,35.6127,-77.3663,84.36,28,0,6.91,2023-04-19 19:49:01
214,Zhenlai,CN,45.8495,123.2973,45.36,28,100,21.83,2023-04-19 19:49:03
215,Lazaro Cardenas,MX,17.9583,-102.2,84.09,58,39,12.19,2023-04-19 19:49:04
216,Cooper'S Town,BS,26.8667,-77.5167,74.19,69,100,14.85,2023-04-19 19:49:05
217,Serhiyivka,UA,46.0272,30.3768,50.65,93,100,8.9,2023-04-19 19:49:07
218,Port Alfred,ZA,-33.5906,26.891,78.96,40,78,9.33,2023-04-19 19:49:08
219,Bytow,PL,54.1706,17.4919,40.21,90,99,12.19,2023-04-19 19:49:09
220,Amursk,RU,50.2261,136.8994,37.6,93,100,2.84,2023-04-19 19:46:02
221,Aasiaat,GL,68.7098,-52.8699,16.59,81,89,6.51,2023-04-19 19:49:12
222,Asau,RO,46.4333,26.4,49.28,93,86,4.32,2023-04-19 19:49:13
223,Taguatinga,BR,-12.3857,-46.5711,82.92,66,94,2.35,2023-04-19 19:49:14
224,Battagram,PK,34.6772,73.0233,55.56,85,99,3.18,2023-04-19 19:49:16
225,Trairi,BR,-3.2778,-39.2689,79.41,91,100,4.63,2023-04-19 19:46:03
226,Mabai,CN,23.0128,104.4508,62.85,81,0,2.39,2023-04-19 19:49:18
227,Kone,NC,-21.0595,164.8658,71.51,89,2,0.58,2023-04-19 19:49:20
228,Reggane,DZ,26.7158,0.1714,87.17,12,0,12.33,2023-04-19 19:49:21
229,Turbat,PK,26.0023,63.044,80.92,39,13,5.73,2023-04-19 19:49:22
230,Luderitz,NA,-26.6481,15.1594,61.5,77,100,7.47,2023-04-19 19:49:24
231,Magadan,RU,59.5667,150.8,26.37,76,100,10.76,2023-04-19 19:49:25
232,Sinop,TR,41.7711,34.8709,49.77,91,92,4.25,2023-04-19 19:49:27
233,I-N-Salah,DZ,27.1935,2.4607,85.62,17,5,8.55,2023-04-19 19:49:28
234,Vanimo,PG,-2.6741,141.3028,77.22,90,100,4.21,2023-04-19 19:49:29
235,Shingu,JP,33.7333,135.9833,63.5,98,100,2.89,2023-04-19 19:45:54
236,Saint-Pierre,RE,-21.3393,55.4781,76.68,78,0,6.91,2023-04-19 19:49:32
237,Revda,RU,56.801,59.9303,34.61,68,99,3.51,2023-04-19 19:49:33
238,Kisanga,TZ,-7.4362,37.7034,73.27,94,100,2.53,2023-04-19 19:49:34
239,Banjarmasin,ID,-3.3244,114.591,77.14,95,96,2.15,2023-04-19 19:49:35
240,Prince Rupert,CA,54.3161,-130.3201,50.09,48,0,17.27,2023-04-19 19:50:37
241,Aykhal,RU,66.0,111.5,2.84,100,100,5.44,2023-04-19 19:50:38
242,Concepcion,CL,-36.827,-73.0498,67.8,60,0,11.5,2023-04-19 19:50:39
243,Dalandzadgad,MN,43.5708,104.425,36.68,12,91,8.08,2023-04-19 19:50:40
244,Saipan,MP,15.1355,145.701,79.5,100,40,12.66,2023-04-19 19:50:42
245,Mokhsogollokh,RU,61.4681,128.9203,23.67,94,100,6.4,2023-04-19 19:50:43
246,Namibe,AO,-15.1961,12.1522,78.17,71,45,5.93,2023-04-19 19:50:44
247,Nea Alikarnassos,GR,35.3333,25.1667,59.83,61,20,9.22,2023-04-19 19:50:45
248,Tarasovskiy,RU,48.7292,40.3636,55.36,61,99,15.77,2023-04-19 19:50:46
249,Kourou,GF,5.1552,-52.6478,77.05,91,96,8.32,2023-04-19 19:50:48
250,Chonchi,CL,-42.6128,-73.8092,63.61,97,100,1.63,2023-04-19 19:50:49
251,East London,ZA,-33.0153,27.9116,80.35,32,10,9.64,2023-04-19 19:50:50
252,Yanam,IN,16.7333,82.2167,76.37,88,10,2.26,2023-04-19 19:50:51
253,Rio Grande,BR,-32.035,-52.0986,59.11,53,100,17.65,2023-04-19 19:50:52
254,Kiunga,PG,-6.1219,141.2906,71.26,100,91,0.29,2023-04-19 19:50:54
255,Summerlin South,US,36.1027,-115.3811,62.19,15,1,4.0,2023-04-19 19:50:55
256,Howard Springs,AU,-12.497,131.047,71.51,72,7,2.66,2023-04-19 19:50:56
257,Kalininsk,RU,51.5,44.4758,48.11,49,94,7.94,2023-04-19 19:50:57
258,Crucecita,AR,-28.95,-58.9833,76.24,31,9,14.92,2023-04-19 19:50:58
259,Valdivia,CL,-39.8142,-73.2459,62.69,61,100,3.67,2023-04-19 19:50:59
260,Katsuren-Haebaru,JP,26.3369,127.8719,75.22,94,100,8.05,2023-04-19 19:51:01
261,Kingston,JM,17.997,-76.7936,85.15,77,40,18.41,2023-04-19 19:48:56
262,Buta,CD,2.7858,24.73,75.24,78,100,1.03,2023-04-19 19:51:03
263,Atar,MR,20.5169,-13.0499,82.78,17,100,7.61,2023-04-19 19:51:04
264,Horta,PT,38.5333,-28.6333,57.02,71,40,13.8,2023-04-19 19:47:57
265,Fort St. John,CA,56.2499,-120.8529,39.09,65,100,5.75,2023-04-19 19:51:07
266,Port Isabel,US,26.0734,-97.2086,84.29,73,100,19.57,2023-04-19 19:51:08
267,Iskateley,RU,67.6803,53.1512,32.22,98,100,16.69,2023-04-19 19:51:10
268,Micheweni,TZ,-4.9667,39.8333,79.84,84,94,11.41,2023-04-19 19:51:11
269,Kapiri Mposhi,ZM,-13.9652,28.6809,61.21,88,31,4.99,2023-04-19 19:51:13
270,Invercargill,NZ,-46.4,168.35,53.02,82,95,1.99,2023-04-19 19:47:38
271,Nadym,RU,65.5333,72.5167,3.88,90,74,5.39,2023-04-19 19:51:15
272,Tura,IN,25.5198,90.2201,79.43,68,72,8.9,2023-04-19 19:51:17
273,Buchanan,LR,5.8808,-10.0467,80.56,86,92,6.87,2023-04-19 19:51:18
274,Colonia,DE,50.9333,6.95,52.95,39,0,8.05,2023-04-19 19:51:19
275,Yatou,CN,37.15,122.3833,52.95,92,69,10.4,2023-04-19 19:51:21
276,Todos Santos,MX,23.45,-110.2167,68.67,77,100,10.92,2023-04-19 19:51:22
277,Usinsk,RU,65.9939,57.5281,28.87,97,100,13.11,2023-04-19 19:51:24
278,Belyy Yar,RU,53.6039,91.3903,22.89,68,0,4.47,2023-04-19 19:51:25
279,Jonuta,MX,18.0833,-92.1333,102.99,22,98,5.55,2023-04-19 19:51:26
280,Partur,IN,19.6,76.2167,88.7,26,13,9.69,2023-04-19 19:51:27
281,Tromso,NO,69.6496,18.957,42.82,87,75,12.66,2023-04-19 19:49:08
282,La Passe,FR,45.5549,-0.8967,64.63,68,0,9.42,2023-04-19 19:51:30
283,Sibolga,ID,1.7427,98.7792,77.27,89,86,2.66,2023-04-19 19:51:31
284,Lospalos,TL,-8.5186,127.0025,69.94,89,54,5.77,2023-04-19 19:51:32
285,Baturaja,ID,-4.1333,104.1667,73.78,99,100,1.14,2023-04-19 19:52:33
286,Terenozek,KZ,45.05,64.9833,48.72,25,70,9.48,2023-04-19 19:52:35
287,Antonio Enes,MZ,-16.2325,39.9086,76.91,76,25,6.11,2023-04-19 19:52:36
288,Nago,JP,26.5881,127.9761,74.25,88,100,11.86,2023-04-19 19:52:37
289,Dolbeau-Mistassini,CA,48.8763,-72.212,41.65,58,100,10.31,2023-04-19 19:52:38
290,Namsos,NO,64.4662,11.4957,46.31,66,100,0.0,2023-04-19 19:52:40
291,Palikir - National Government Center,FM,6.9248,158.1611,75.94,94,100,10.36,2023-04-19 19:52:41
292,Northam,GB,51.0333,-4.2167,55.38,76,21,18.77,2023-04-19 19:52:42
293,Cambria,US,35.5641,-121.0808,64.56,76,18,4.0,2023-04-19 19:52:43
294,Midvagur,FO,62.0511,-7.1939,45.43,81,1,5.75,2023-04-19 19:52:44
295,Los Andes,CL,-32.8337,-70.5983,81.01,14,98,4.21,2023-04-19 19:52:46
296,Marang,MY,5.2056,103.2059,78.71,87,99,4.52,2023-04-19 19:52:47
297,Mirnyy,RU,62.5353,113.9611,21.24,48,100,13.0,2023-04-19 19:52:48
298,Mendi,PG,-6.1761,143.6513,51.8,97,36,3.56,2023-04-19 19:52:49
299,Sharm El-Sheikh,EG,27.8518,34.305,86.14,17,0,2.3,2023-04-19 19:52:50
300,Byron Bay,AU,-28.65,153.6167,58.71,74,100,13.11,2023-04-19 19:52:52
301,Puerto Armuelles,PA,8.2833,-82.8667,91.38,63,100,9.64,2023-04-19 19:52:53
302,Rio Tuba,PH,8.5061,117.4317,81.9,79,100,7.87,2023-04-19 19:52:54
303,Mao,ES,39.8885,4.2658,55.96,82,0,4.61,2023-04-19 19:52:55
304,Tercan,TR,39.7794,40.3925,51.28,76,100,6.73,2023-04-19 19:52:57
305,Sargatskoye,RU,55.6101,73.4972,28.42,55,53,4.85,2023-04-19 19:52:58
306,Qal'Ah-Ye Shahr,AF,35.5473,65.5676,40.19,73,5,0.6,2023-04-19 19:52:59
307,Totolapan,MX,18.5167,-96.1833,101.21,30,91,6.8,2023-04-19 19:53:00
308,Hanceville,US,34.0607,-86.7675,85.15,32,0,9.24,2023-04-19 19:53:01
309,Tiksi,RU,71.6872,128.8694,-9.45,100,100,3.24,2023-04-19 19:53:03
310,Derzhavinsk,KZ,51.1,66.3167,34.68,90,47,8.63,2023-04-19 19:53:04
311,Laascaanood,SO,8.4774,47.3597,83.52,31,100,5.97,2023-04-19 19:53:05
312,Kuanda,RU,56.3161,116.0806,17.92,81,100,5.59,2023-04-19 19:53:06
313,Sittwe,MM,20.15,92.9,83.14,74,92,2.73,2023-04-19 19:53:08
314,Palmer,US,42.1584,-72.3287,52.0,51,75,13.8,2023-04-19 19:53:09
315,Wewak,PG,-3.5534,143.6268,77.68,89,100,5.39,2023-04-19 19:53:10
316,Manakara,MG,-22.1333,48.0167,71.49,94,31,4.81,2023-04-19 19:53:11
317,Huarmey,PE,-10.0681,-78.1522,80.29,70,76,10.63,2023-04-19 19:53:12
318,Liwonde,MW,-15.0506,35.2035,67.28,93,49,1.63,2023-04-19 19:53:14
319,Arroyo De La Luz,ES,39.4851,-6.584,64.02,36,1,2.91,2023-04-19 19:53:15
320,Mont-Laurier,CA,46.5501,-75.4993,33.42,66,100,9.17,2023-04-19 19:53:16
321,Siocon,PH,7.7061,122.1353,79.05,86,57,0.81,2023-04-19 19:53:18
322,Quelimane,MZ,-17.8786,36.8883,71.56,88,0,2.71,2023-04-19 19:53:19
323,Ed Damer,SD,17.5928,33.9592,86.74,7,0,9.93,2023-04-19 19:53:20
324,Mahalapye,BW,-23.1041,26.8142,66.69,34,0,7.0,2023-04-19 19:53:22
325,Miandrivazo,MG,-19.5167,45.4667,77.13,81,5,1.48,2023-04-19 19:53:23
326,Portland,US,45.5234,-122.6762,48.18,83,75,10.36,2023-04-19 19:48:49
327,El Porvenir,HN,13.7617,-87.3458,90.73,20,66,7.49,2023-04-19 19:53:25
328,Klyuchi,RU,52.2667,79.1667,20.03,84,5,8.08,2023-04-19 19:53:27
329,Faya-Largeau,TD,17.9257,19.1043,96.12,7,62,10.04,2023-04-19 19:53:28
330,Waingapu,ID,-9.6567,120.2641,75.18,79,93,8.55,2023-04-19 19:58:15
331,El Calafate,AR,-50.3408,-72.2768,49.05,80,37,22.46,2023-04-19 19:58:17
332,Port Said,EG,31.2565,32.2841,67.98,88,40,5.75,2023-04-19 19:58:18
333,Sancaktepe,TR,41.0024,29.2319,54.57,93,40,11.5,2023-04-19 19:58:19
334,Les Avirons,RE,-21.2418,55.3394,73.49,78,0,6.91,2023-04-19 19:58:20
335,Nadi,FJ,-17.8,177.4167,73.4,94,20,3.44,2023-04-19 19:58:22
336,Caleta De Carquin,PE,-11.0925,-77.6267,78.39,71,44,10.8,2023-04-19 19:58:23
337,Holualoa,US,19.6228,-155.9522,73.24,94,100,24.16,2023-04-19 19:58:24
338,Aginskoye,RU,51.1,114.53,21.04,36,0,25.61,2023-04-19 19:58:26
339,Tandil,AR,-37.3217,-59.1332,60.06,44,4,14.67,2023-04-19 19:58:27
340,Fort Bragg,US,35.139,-79.006,88.2,24,0,5.75,2023-04-19 19:58:28
341,Kasongo-Lunda,CD,-6.4667,16.8167,74.34,92,99,1.36,2023-04-19 19:58:30
342,Abepura,ID,-2.6333,140.5833,74.21,94,20,0.0,2023-04-19 19:55:05
343,Fortuna,US,40.5982,-124.1573,55.92,59,30,5.01,2023-04-19 19:58:32
344,Egilsstadir,IS,65.2653,-14.3948,57.11,54,0,4.61,2023-04-19 19:57:16
345,Novovarshavka,RU,54.1721,74.6946,29.77,33,18,5.61,2023-04-19 19:58:35
346,Bubaque,GW,11.2833,-15.8333,78.73,73,35,19.55,2023-04-19 19:58:36
347,Makhambet,KZ,47.6667,51.5833,55.62,28,98,11.61,2023-04-19 19:58:37
348,Maceio,BR,-9.6658,-35.7353,85.44,74,0,12.66,2023-04-19 19:58:38
349,Shumikha,RU,55.2261,63.2961,37.45,44,18,8.95,2023-04-19 19:58:39
350,Al Jawf,SA,29.5,38.75,78.57,28,100,6.49,2023-04-19 19:58:41
351,Jayapura,ID,-2.5333,140.7,74.59,91,100,4.94,2023-04-19 19:55:43
352,Mejit,MH,10.2753,170.8646,80.44,80,100,18.86,2023-04-19 19:58:44
353,Mirny,RU,62.5353,113.9611,21.24,48,100,13.0,2023-04-19 19:58:45
354,Kuandian,CN,40.7286,124.7847,48.7,71,100,2.26,2023-04-19 19:58:46
355,Jutai,BR,-5.1833,-68.9,85.01,74,100,3.06,2023-04-19 19:58:48
356,Manado,ID,1.487,124.8455,75.97,94,20,2.3,2023-04-19 19:58:49
357,Pleiku,VN,13.9833,108.0,70.68,90,0,3.87,2023-04-19 19:58:50
358,Ojinaga,MX,29.5667,-104.4167,89.56,15,0,9.22,2023-04-19 19:58:51
359,Inari,FI,68.906,27.0288,43.0,94,100,7.0,2023-04-19 19:58:52
360,Masina,CD,-4.3836,15.3914,86.34,84,85,0.38,2023-04-19 19:58:54
361,Novaya Igirma,RU,57.1334,103.9112,15.55,92,100,8.3,2023-04-19 19:58:55
362,Solnechnyy,RU,50.7214,136.6319,34.03,94,100,2.82,2023-04-19 19:58:56
363,Acarau,BR,-2.8856,-40.12,80.58,84,100,6.29,2023-04-19 19:58:57
364,Pianco,BR,-7.1981,-37.9292,88.27,51,73,3.6,2023-04-19 19:58:58
365,Tank,PK,32.2217,70.3793,72.43,61,0,9.53,2023-04-19 19:58:59
366,Harstad,NO,68.799,16.5293,46.15,100,100,25.99,2023-04-19 19:59:01
367,Mawu,CN,29.5923,107.3139,67.71,82,92,3.8,2023-04-19 19:54:39
368,Spirovo,RU,57.419,34.9766,42.96,70,46,4.92,2023-04-19 19:59:03
369,Atuncolla,PE,-15.6833,-70.15,61.21,25,36,6.31,2023-04-19 19:59:05
370,Ain Sefra,DZ,32.75,-0.5833,70.07,33,100,12.88,2023-04-19 19:59:06
371,Sheridan,US,44.8333,-106.9173,43.3,54,100,25.32,2023-04-19 19:55:24
372,Tabou,CI,4.423,-7.3528,81.68,82,40,7.25,2023-04-19 19:59:09
373,Tindouf,DZ,27.6711,-8.1474,71.06,39,5,23.38,2023-04-19 19:59:10
374,Warmbad,NA,-28.45,18.7333,72.23,26,100,6.93,2023-04-19 19:59:11
375,Happy Valley-Goose Bay,CA,53.3168,-60.3315,44.91,65,75,11.5,2023-04-19 19:59:12
376,Fisterra,ES,42.9049,-9.2629,59.76,88,100,11.95,2023-04-19 20:00:24
377,Parabel',RU,58.6978,81.4825,21.72,95,100,7.25,2023-04-19 20:01:38
378,Nar'Yan-Mar,RU,67.6713,53.087,32.07,98,100,16.82,2023-04-19 20:01:40
379,Labrador City,CA,52.9463,-66.9114,39.11,75,100,6.91,2023-04-19 20:00:15
380,Puerto Colombia,CO,10.9878,-74.9547,89.69,80,82,20.58,2023-04-19 20:01:42
381,Biltine,TD,14.5333,20.9167,91.04,12,0,1.32,2023-04-19 20:01:44
382,Kailua-Kona,US,19.6406,-155.9956,75.51,94,100,1.99,2023-04-19 20:01:45
383,Valderice,IT,38.0401,12.6151,54.59,73,20,4.61,2023-04-19 20:01:46
384,Camocim,BR,-2.9022,-40.8411,80.94,78,100,3.76,2023-04-19 20:01:47
385,Sibbo,FI,60.3775,25.2691,45.03,50,0,4.61,2023-04-19 20:01:49
386,Tsiombe,MG,-25.3,45.4833,73.6,90,100,11.99,2023-04-19 20:01:50
387,Kununurra,AU,-15.7667,128.7333,78.78,47,4,12.66,2023-04-19 20:01:52
388,Preobrazheniye,RU,42.9019,133.9064,45.3,70,100,3.51,2023-04-19 20:01:53
389,Touros,BR,-5.1989,-35.4608,82.56,77,100,14.52,2023-04-19 20:00:49
390,Laurel,US,39.0993,-76.8483,76.87,25,0,10.36,2023-04-19 19:59:58
391,Renqiu,CN,38.6989,116.0936,69.33,37,100,19.8,2023-04-19 20:01:57
392,Benton,US,36.3334,-94.3335,71.51,71,100,27.0,2023-04-19 19:57:28
393,Merizo Village,GU,13.2658,144.6691,80.58,83,69,15.88,2023-04-19 20:02:00
394,Nurmes,FI,63.5421,29.1397,35.67,100,100,3.83,2023-04-19 20:02:01
395,Santa Fe,AR,-31.6333,-60.7,76.95,38,0,11.01,2023-04-19 19:58:45
396,Benguela,AO,-12.5763,13.4055,81.91,79,15,3.74,2023-04-19 19:58:34
397,Tavda,RU,58.0425,65.2726,29.86,65,72,4.56,2023-04-19 20:02:05
398,Grand Falls-Windsor,CA,48.9332,-55.6649,38.5,92,100,1.99,2023-04-19 20:00:27
399,Lompoc,US,34.6391,-120.4579,72.7,54,20,19.57,2023-04-19 20:02:07
400,Castelli,AR,-25.9468,-60.6195,83.41,30,0,10.2,2023-04-19 20:02:09
401,Malango,ID,-2.9627,119.9001,70.86,98,100,0.94,2023-04-19 20:02:10
402,Sigli,ID,5.3848,95.9609,77.05,89,99,3.02,2023-04-19 20:02:12
403,Tharyarwady,MM,17.65,95.8,81.25,78,0,8.39,2023-04-19 20:02:13
404,Scarborough,GB,54.2797,-0.4044,44.78,88,4,5.01,2023-04-19 20:00:01
405,Shenjiamen,CN,29.9576,122.298,59.5,96,100,10.56,2023-04-19 20:02:15
406,Guarapari,BR,-20.6667,-40.4975,85.89,78,93,4.14,2023-04-19 20:02:17
407,Wenzhou,CN,27.9994,120.6668,68.81,95,100,2.46,2023-04-19 20:00:06
408,Aroma,SD,15.8167,36.1333,87.69,8,0,10.56,2023-04-19 20:02:19
409,Ndende,GA,-2.4008,11.3581,76.26,94,100,1.25,2023-04-19 20:02:20
410,Duragan,TR,41.4158,35.0544,55.2,90,87,1.57,2023-04-19 20:02:22
411,Gadzhiyevo,RU,69.2551,33.3362,36.86,93,100,16.75,2023-04-19 20:02:23
412,Ilomantsi,FI,62.6716,30.9328,33.76,100,100,3.06,2023-04-19 20:02:24
413,Dalby,AU,-27.1833,151.2667,58.26,75,53,7.74,2023-04-19 20:02:26
414,Miramichi,CA,47.0043,-65.4654,49.68,58,100,7.83,2023-04-19 20:02:27
415,Nurabad,IR,34.0734,47.9725,53.89,50,0,2.33,2023-04-19 20:02:28
416,Strathmore,CA,51.0501,-113.3852,44.87,64,100,11.41,2023-04-19 19:58:29
417,Ozieri,IT,40.586,9.0012,49.32,90,96,0.81,2023-04-19 20:02:30
418,Hasaki,JP,35.7333,140.8333,59.4,93,100,8.46,2023-04-19 20:02:32
419,Sosnovka,RU,56.255,51.2842,42.04,91,26,3.24,2023-04-19 20:02:33
420,Zavodoukovsk,RU,56.5042,66.5515,32.04,54,74,4.38,2023-04-19 20:02:34
421,Namdrik,MH,5.5994,168.1028,82.65,78,100,14.83,2023-04-19 20:02:35
422,Eregli,TR,37.5133,34.0467,58.03,54,46,18.12,2023-04-19 20:02:37
423,Cardenas,CU,23.0375,-81.2047,83.16,60,12,20.49,2023-04-19 20:03:38
424,Abancay,PE,-13.6339,-72.8814,73.71,56,40,6.53,2023-04-19 20:03:39
425,Okhotsk,RU,59.3833,143.3,18.46,80,39,9.91,2023-04-19 20:03:40
426,Ventspils,LV,57.3894,21.5606,46.33,53,0,10.36,2023-04-19 20:03:41
427,Vesoul,FR,47.5833,5.8333,54.41,83,100,8.84,2023-04-19 20:03:43
428,As Sulayyil,SA,20.4607,45.5779,73.65,71,80,25.3,2023-04-19 20:03:44
429,La Ronge,CA,55.1001,-105.2842,37.65,32,75,19.57,2023-04-19 20:03:45
430,St. John'S,CA,47.5649,-52.7093,37.78,89,100,13.8,2023-04-19 20:01:08
431,Turkestan,KZ,43.3333,68.25,49.59,24,0,19.98,2023-04-19 20:03:48
432,Goondiwindi,AU,-28.55,150.3167,58.01,76,11,6.8,2023-04-19 20:03:49
433,Haiku-Pauwela,US,20.9219,-156.3051,73.04,95,100,11.5,2023-04-19 20:03:50
434,Armacao De Buzios,BR,-22.7469,-41.8817,78.85,85,100,10.33,2023-04-19 20:03:51
435,Alice Springs,AU,-23.7,133.8833,51.35,87,0,9.22,2023-04-19 20:03:52
436,Aberdeen,GB,57.1437,-2.0981,46.89,88,5,2.3,2023-04-19 20:00:55
437,Sechura,PE,-5.5569,-80.8222,85.87,58,73,10.74,2023-04-19 20:03:55
438,Sungailiat,ID,-1.85,106.1333,79.66,85,100,4.5,2023-04-19 20:03:56
439,Demba,CD,-5.51,22.2667,72.88,87,97,2.68,2023-04-19 20:03:57
440,Lautoka,FJ,-17.6167,177.4667,78.66,83,20,4.61,2023-04-19 20:03:58
441,Pizarro,CO,4.9533,-77.366,84.07,71,100,6.6,2023-04-19 20:04:00
442,Cherokee,US,34.2668,-84.4499,85.82,24,0,10.36,2023-04-19 20:03:02
443,Burang,CN,30.25,81.1667,30.58,94,95,6.4,2023-04-19 20:04:02
444,Myeik,MM,12.4333,98.6,80.24,82,21,5.82,2023-04-19 20:04:03
445,Vinh,VN,18.6667,105.6667,82.44,58,0,2.62,2023-04-19 20:04:05
446,Ustyuzhna,RU,58.8394,36.4321,42.3,81,77,5.66,2023-04-19 20:04:06
447,Whistler,CA,50.1164,-122.9695,43.83,53,75,2.3,2023-04-19 20:04:00
448,Namyslow,PL,51.0759,17.7228,41.0,93,99,2.62,2023-04-19 20:04:09
449,Manicore,BR,-5.8092,-61.3003,85.95,74,20,3.44,2023-04-19 20:04:10
450,Belmonte,BR,-15.8631,-38.8828,82.18,83,4,13.58,2023-04-19 20:04:12
451,Djambala,CG,-2.5447,14.7533,74.03,80,98,1.92,2023-04-19 20:04:13
452,Perene,PE,-10.9492,-75.2261,87.76,53,78,5.93,2023-04-19 20:04:14
453,Bam,IR,29.106,58.357,70.32,24,4,4.52,2023-04-19 20:04:16
454,Columbia,US,34.0007,-81.0348,89.47,26,0,6.91,2023-04-19 20:01:36
455,New Norfolk,AU,-42.7826,147.0587,50.92,77,100,1.99,2023-04-19 20:04:18
456,Rong Kwang,TH,18.339,100.3174,82.63,47,0,2.37,2023-04-19 20:04:19
457,Aban,RU,56.67,96.06,19.09,85,100,9.55,2023-04-19 20:04:21
458,Tosontsengel,MN,48.7567,98.2839,23.77,26,100,8.1,2023-04-19 20:04:22
459,Xiongzhou,CN,25.1167,114.3,68.38,98,78,0.94,2023-04-19 20:04:23
460,Pontianak,ID,-0.0333,109.3333,78.78,100,40,2.3,2023-04-19 20:04:25
461,Camacupa,AO,-12.0167,17.4833,65.93,65,97,4.54,2023-04-19 20:04:26
462,Swan Hill,AU,-35.3378,143.5544,49.73,73,85,6.35,2023-04-19 20:04:27
463,Trevelin,AR,-43.0858,-71.4639,63.88,74,97,5.21,2023-04-19 20:04:28
464,Hirara,JP,24.8,125.2833,77.27,94,100,18.41,2023-04-19 20:04:30
465,Constantia,RO,44.1833,28.65,50.7,94,100,9.89,2023-04-19 20:04:31
466,Labytnangi,RU,66.6572,66.4183,14.56,91,100,5.66,2023-04-19 20:04:32
467,Singkawang,ID,0.9,109.0,77.29,88,98,2.04,2023-04-19 20:04:33
468,Kraljevo,RS,43.7258,20.6894,50.0,100,40,1.14,2023-04-19 20:05:35
469,Chihuahua,MX,28.5,-106.0,79.2,7,93,14.36,2023-04-19 20:01:34
470,Bengkulu,ID,-3.8004,102.2655,75.51,91,100,3.74,2023-04-19 20:05:37
471,Stettler,CA,52.3168,-112.7186,34.75,65,100,9.46,2023-04-19 20:01:56
472,Les Cayes,HT,18.2,-73.75,83.71,60,1,10.85,2023-04-19 20:05:40
473,Lappeenranta,FI,61.0587,28.1887,37.45,71,0,2.3,2023-04-19 20:05:41
474,Boa Vista,BR,2.8197,-60.6733,91.38,43,40,10.36,2023-04-19 20:05:42
475,Nelson Bay,AU,-32.7167,152.15,64.99,96,100,7.0,2023-04-19 20:05:43
476,Qusmuryn,KZ,52.4503,64.6311,39.31,82,80,7.23,2023-04-19 20:05:45
477,Devakottai,IN,9.95,78.8167,83.34,75,2,10.36,2023-04-19 20:05:46
478,North Battleford,CA,52.7834,-108.2847,32.09,69,100,14.97,2023-04-19 20:00:47
479,Baiyin,CN,36.5583,104.2081,48.49,21,96,10.42,2023-04-19 20:05:48
480,Rongelap,MH,11.1635,166.8941,78.94,84,96,21.16,2023-04-19 20:05:50
481,Ta`U,AS,-14.2336,-169.5144,83.1,76,98,19.3,2023-04-19 20:05:51
482,Blankenburg,DE,51.7833,10.95,42.64,98,100,10.38,2023-04-19 20:05:15
483,Saint-Francois,FR,46.4154,3.9054,54.84,62,0,6.91,2023-04-19 20:05:53
484,Talas,TR,38.6908,35.5538,56.07,58,75,17.27,2023-04-19 20:05:55
485,Santa Elena De Uairen,VE,4.6167,-61.1333,83.12,47,46,6.71,2023-04-19 20:05:56
486,Sept-Iles,CA,50.2001,-66.3821,37.92,94,100,4.61,2023-04-19 20:05:57
487,Hailey,US,43.5196,-114.3153,38.89,36,0,10.0,2023-04-19 20:05:58
488,San Clemente Del Tuyu,AR,-36.3569,-56.7235,59.2,60,58,19.19,2023-04-19 20:05:59
489,Rahachow,BY,53.0934,30.0495,48.36,67,36,7.47,2023-04-19 20:06:01
490,Seaside,US,36.6111,-121.8516,62.73,60,0,13.8,2023-04-19 20:06:02
491,Bou Arada,TN,36.3525,9.6218,60.71,65,100,7.92,2023-04-19 20:06:04
492,Kenai,US,60.5544,-151.2583,39.29,52,0,11.5,2023-04-19 20:06:05
493,Tottori,JP,35.5,134.2333,60.37,92,34,9.08,2023-04-19 20:06:06
494,Beau Vallon,MU,-20.4189,57.6953,79.21,89,40,12.66,2023-04-19 20:06:08
495,Arteche,PH,12.2645,125.4048,78.35,89,26,4.79,2023-04-19 20:06:09
496,Fukuecho,JP,32.6881,128.8419,62.53,85,84,10.11,2023-04-19 20:06:11
497,Qarqaraly,KZ,49.4058,75.4742,23.97,73,0,2.77,2023-04-19 20:06:12
498,Miyako,JP,39.6367,141.9525,45.27,61,19,4.92,2023-04-19 20:06:13
499,Saldanha,ZA,-33.0117,17.9442,59.05,87,100,13.71,2023-04-19 20:06:14
500,Tlahualilo De Zaragoza,MX,26.1167,-103.45,88.97,11,37,7.34,2023-04-19 20:06:16
501,Khandyga,RU,62.6667,135.6,22.68,96,100,2.33,2023-04-19 20:06:17
502,Aoulef,DZ,26.9667,1.0833,86.86,13,0,11.3,2023-04-19 20:06:18
503,Kostanay,KZ,53.1667,63.5833,35.89,69,0,4.47,2023-04-19 20:06:20
504,Akjoujt,MR,19.6969,-14.4164,84.76,19,100,10.56,2023-04-19 20:06:21
505,Kavieng,PG,-2.5744,150.7967,80.58,76,81,2.98,2023-04-19 20:06:22
506,Iquique,CL,-20.2208,-70.1431,73.44,73,8,5.77,2023-04-19 20:02:43
507,Grandview,US,38.8858,-94.533,77.32,59,100,24.16,2023-04-19 20:06:25
508,Puerto Gaitan,CO,4.3133,-72.0816,91.44,47,91,11.56,2023-04-19 20:06:27
509,Morales,CO,2.757,-76.6172,72.03,77,89,4.85,2023-04-19 20:06:28
510,Angel R. Cabada,MX,18.5833,-95.4333,79.72,83,63,14.99,2023-04-19 20:01:49
511,Taoudenni,ML,22.6783,-3.9836,91.8,13,20,12.1,2023-04-19 20:06:31
512,Sebis,RO,46.3667,22.1167,47.66,87,39,3.83,2023-04-19 20:06:32
513,Antalaha,MG,-14.9003,50.2788,74.88,90,2,7.14,2023-04-19 20:06:33
514,Ath Thawrah,SY,35.8469,38.5443,68.81,59,100,9.93,2023-04-19 20:06:34
515,Lata,PT,40.1629,-8.3327,59.81,82,32,4.61,2023-04-19 20:07:35
516,Sanctuary Point,AU,-35.1114,150.629,65.75,79,99,9.33,2023-04-19 20:07:37
517,Broome,US,42.2506,-75.833,56.01,56,0,11.5,2023-04-19 20:07:38
518,Itoman,JP,26.1247,127.6694,75.97,100,100,16.11,2023-04-19 20:07:39
519,Martaban,MM,16.5314,97.6111,81.63,81,25,7.49,2023-04-19 20:07:40
520,Saint-Philippe,RE,-21.3585,55.7679,76.59,85,31,12.8,2023-04-19 20:07:42
521,Kenora,CA,49.8167,-94.4337,34.77,37,100,16.11,2023-04-19 20:07:43
522,Dryden,CA,49.7833,-92.7503,39.22,50,100,11.92,2023-04-19 20:07:44
523,Ulsteinvik,NO,62.3432,5.8487,49.91,77,16,1.99,2023-04-19 20:07:45
524,Elmali,TR,36.7358,29.9177,46.44,67,0,2.71,2023-04-19 20:07:46
525,Pingliang,CN,35.5392,106.6861,55.49,29,83,13.06,2023-04-19 20:07:48
526,Changyon,KP,38.2508,125.0961,55.53,88,86,5.08,2023-04-19 20:07:49
527,Ca Mau,VN,9.1769,105.15,79.32,86,71,3.42,2023-04-19 20:04:40
528,Bossangoa,CF,6.4926,17.4552,75.15,77,100,5.12,2023-04-19 20:07:51
529,Chul'Man,RU,56.8479,124.9104,4.23,98,100,3.13,2023-04-19 20:07:52
530,Nchelenge,ZM,-9.3451,28.734,69.24,86,44,6.6,2023-04-19 20:07:53
531,Arkhangel'Sk,RU,64.5401,40.5433,37.51,80,40,6.71,2023-04-19 20:07:55
532,Agogo,GH,6.8,-1.0819,73.4,90,100,4.59,2023-04-19 20:07:56
533,Kota Tinggi,MY,1.7381,103.8999,82.44,93,100,0.67,2023-04-19 20:07:57
534,Detroit Lakes,US,46.8172,-95.8453,42.35,77,100,25.32,2023-04-19 20:07:58
535,Mani,CO,4.8172,-72.2886,89.29,52,80,9.69,2023-04-19 20:07:59
536,Twentynine Palms,US,34.1356,-116.0542,70.97,16,3,3.0,2023-04-19 20:06:51
537,Tahe,CN,52.3333,124.7333,26.44,96,100,5.37,2023-04-19 20:08:02
538,Altai,MN,46.3722,96.2583,21.43,25,53,3.31,2023-04-19 20:08:03
539,Den Helder,NL,52.9599,4.7593,50.97,71,0,23.02,2023-04-19 20:08:04
540,Wau,SS,7.7029,27.9953,86.4,48,100,6.91,2023-04-19 20:08:06
541,Amga,RU,60.8953,131.9608,21.42,97,100,1.68,2023-04-19 20:08:07
542,El Molino,CO,10.6523,-72.924,90.59,49,100,4.7,2023-04-19 20:08:08
543,Sur,OM,22.5667,59.5289,80.13,67,46,12.3,2023-04-19 20:08:10
544,Yuanping,CN,38.7153,112.7575,57.85,30,82,13.65,2023-04-19 20:08:11
545,Beira,MZ,-19.8436,34.8389,73.81,78,2,5.79,2023-04-19 20:08:12
546,Brookings,US,44.3114,-96.7984,54.05,83,100,12.66,2023-04-19 20:04:57
547,Mthatha,ZA,-31.5889,28.7844,64.49,30,0,5.84,2023-04-19 20:08:15
548,Soure,BR,-0.7167,-48.5233,80.11,80,100,5.61,2023-04-19 20:08:16
549,Pandan,PH,14.0453,124.1694,78.87,88,9,6.24,2023-04-19 20:08:17
550,Santa Cruz,BO,-17.8,-63.1667,72.86,88,100,11.5,2023-04-19 20:04:53
551,Vorkuta,RU,67.5,64.0,19.27,97,100,7.72,2023-04-19 20:08:19
552,Namanga,KE,-2.5433,36.7905,66.83,86,93,2.82,2023-04-19 20:08:21
553,Envira,BR,-7.3,-70.2167,85.19,72,97,2.13,2023-04-19 20:04:06
554,Amontada,BR,-3.3617,-39.8317,79.18,92,100,3.69,2023-04-19 20:08:23
555,Sao Vicente,BR,-23.9631,-46.3919,84.38,26,81,1.07,2023-04-19 20:08:24
556,Shelbyville,US,35.4834,-86.4603,81.84,22,0,10.36,2023-04-19 20:08:26
557,Buala,SB,-8.145,159.5921,78.49,78,11,2.24,2023-04-19 20:08:27
558,Nikopol,UA,47.5712,34.3964,48.33,91,88,10.58,2023-04-19 20:08:28
559,Chernyshevsk,RU,52.5243,117.0174,24.67,87,100,20.33,2023-04-19 20:08:30
560,Akureyri,IS,65.6835,-18.0878,48.96,88,48,9.42,2023-04-19 20:08:06
561,Floro,NO,61.5996,5.0328,53.67,71,0,3.44,2023-04-19 20:08:32
562,West Bay,KY,19.3667,-81.4167,86.0,77,40,9.22,2023-04-19 20:08:33
563,Plaidt,DE,50.3926,7.3925,49.3,69,20,5.23,2023-04-19 20:09:35
564,Thames,NZ,-37.1333,175.5333,64.9,92,90,3.29,2023-04-19 20:09:36
565,Cudillero,ES,43.5622,-6.1459,59.11,92,0,5.75,2023-04-19 20:09:37
566,Kayangel,PW,8.0823,134.7173,83.21,75,14,8.66,2023-04-19 20:09:40
567,Chifeng,CN,42.2683,118.9636,50.49,40,97,17.54,2023-04-19 20:09:42
568,Okoneshnikovo,RU,54.8377,75.0834,28.51,48,51,6.2,2023-04-19 20:09:44
569,Marawi City,PH,8.0,124.2833,70.29,91,40,1.1,2023-04-19 20:09:45
570,Castlegar,CA,49.2998,-117.6689,45.68,58,100,2.75,2023-04-19 20:08:01
571,Yendi,GH,9.4427,-0.0099,84.99,49,16,3.91,2023-04-19 20:09:48
572,Forster,AU,-32.1667,152.5167,55.38,99,100,5.44,2023-04-19 20:09:49
573,Ola,RU,59.5833,151.2833,24.26,77,99,10.69,2023-04-19 20:09:50
574,Yuzhno-Kurilsk,RU,44.0306,145.8556,38.32,86,37,5.23,2023-04-19 20:09:51
575,Musaffah,AE,24.3458,54.5024,79.95,54,0,3.44,2023-04-19 20:09:52
576,Pemangkat,ID,1.1667,108.9667,79.32,81,77,1.9,2023-04-19 20:09:53
577,Necochea,AR,-38.5473,-58.7368,57.85,59,5,15.88,2023-04-19 20:09:55
578,Tomatlan,MX,19.9333,-105.25,92.95,34,1,13.06,2023-04-19 20:09:56
579,Korsor,DK,55.3299,11.1386,45.95,56,0,15.12,2023-04-19 20:09:57
580,Kerema,PG,-7.9631,145.7785,75.74,86,26,3.2,2023-04-19 20:09:58
581,Kirensk,RU,57.7853,108.1119,14.43,94,100,5.91,2023-04-19 20:10:00
582,Burgersdorp,ZA,-30.9977,26.3286,59.45,33,0,5.84,2023-04-19 20:10:01
583,La'Ie,US,21.6477,-157.9253,82.11,71,100,9.89,2023-04-19 20:10:03
584,Arraial Do Cabo,BR,-22.9661,-42.0278,75.06,88,75,8.05,2023-04-19 20:10:05
585,Salinopolis,BR,-0.6136,-47.3561,77.63,90,100,4.07,2023-04-19 20:08:57
586,Zhalantun,CN,48.0,122.7167,34.75,38,0,26.24,2023-04-19 20:10:07
587,Qalat,AF,32.1058,66.9083,55.69,32,1,10.16,2023-04-19 20:10:08
588,Cidade Velha,CV,14.9167,-23.6167,73.87,73,75,18.41,2023-04-19 20:10:09
589,Adam,OM,22.3756,57.5233,83.64,16,64,9.28,2023-04-19 20:10:11
590,Mandawar,IN,29.5,78.1333,75.07,50,100,4.41,2023-04-19 20:10:12
591,Hastings,GB,50.8552,0.5729,50.79,34,1,22.03,2023-04-19 20:10:13
592,Opuwo,NA,-18.0607,13.84,74.84,45,79,4.74,2023-04-19 20:10:14
593,Hadibu,YE,12.65,54.0333,82.04,73,12,7.02,2023-04-19 20:10:16
594,Kalat,PK,29.0225,66.5916,50.43,30,0,8.84,2023-04-19 20:10:17
595,Ubari,LY,26.5921,12.7805,75.99,18,0,10.38,2023-04-19 20:10:18
596,Imbituba,BR,-28.24,-48.6703,70.99,43,98,7.67,2023-04-19 20:10:20
597,Punta Del Este,UY,-34.9667,-54.95,60.96,70,75,18.01,2023-04-19 20:06:39
598,Praia Da Vitoria,PT,38.7333,-27.0667,55.74,78,100,19.71,2023-04-19 20:10:22
599,Howrah,IN,22.5892,88.3103,86.0,84,40,8.05,2023-04-19 20:10:23
600,Sungai Penuh,ID,-2.0833,101.3833,65.35,98,100,0.25,2023-04-19 20:07:15
601,Basco,PH,20.4487,121.9702,80.02,86,99,13.27,2023-04-19 20:10:25
602,Kirakira,SB,-10.4544,161.9205,77.9,83,33,5.08,2023-04-19 20:10:27
603,Siwa Oasis,EG,29.2041,25.5195,69.67,42,0,18.75,2023-04-19 20:10:28
604,Dhuusamarreeb,SO,5.535,46.3861,84.61,56,100,16.69,2023-04-19 20:10:29
605,Aioun,MR,16.6614,-9.6149,95.23,16,100,8.57,2023-04-19 20:10:30
606,Hepo,CN,23.4308,115.8299,73.36,96,100,3.29,2023-04-19 20:10:32
607,Al Kharijah,EG,25.4514,30.5464,86.67,11,100,2.73,2023-04-19 20:10:33
608,Tocopilla,CL,-22.092,-70.1979,70.61,73,21,5.7,2023-04-19 20:10:34
609,Saint-Joseph,RE,-21.3667,55.6167,75.58,83,23,12.3,2023-04-19 20:10:35
610,Pangai,TO,-19.8,-174.35,79.07,88,62,26.55,2023-04-19 20:10:37
611,Rancho Mirage,US,33.7397,-116.4128,77.61,19,0,13.8,2023-04-19 20:10:38
612,Ulanhot,CN,46.0833,122.0833,38.73,20,100,22.53,2023-04-19 20:11:39
613,Maturin,VE,9.75,-63.1767,86.92,49,100,10.33,2023-04-19 20:11:40
614,Homer,US,59.6425,-151.5483,45.03,46,0,0.0,2023-04-19 20:11:41
615,Mount Isa,AU,-20.7333,139.5,69.57,35,40,8.05,2023-04-19 20:11:42
616,Ardakan,IR,32.31,54.0175,69.53,18,0,2.06,2023-04-19 20:11:44
617,Gweru,ZW,-19.45,29.8167,58.51,70,4,9.6,2023-04-19 20:11:45
618,Chitipa,MW,-9.7024,33.2697,61.2,98,56,2.64,2023-04-19 20:11:46
619,Suva,FJ,-18.1416,178.4415,78.28,94,75,0.0,2023-04-19 20:11:47
620,Ribeira Brava,PT,32.65,-17.0667,68.0,77,82,3.69,2023-04-19 20:11:48
621,Punta Alta,AR,-38.8759,-62.0736,71.08,47,0,3.27,2023-04-19 20:11:50
622,Saurimo,AO,-9.6608,20.3916,71.11,79,100,3.42,2023-04-19 20:11:51
623,Joliet,US,41.525,-88.0817,78.89,40,40,20.71,2023-04-19 20:07:52
624,Jiwani,PK,25.05,61.7417,78.55,79,45,8.34,2023-04-19 20:11:53
625,Talcahuano,CL,-36.7167,-73.1167,67.68,64,0,12.66,2023-04-19 20:10:15
626,Choibalsan,MN,48.0667,114.5,27.72,27,70,16.8,2023-04-19 20:11:56
627,Vuokatti,FI,64.146,28.2697,39.06,100,100,5.21,2023-04-19 20:11:57
628,Lamu,KE,-2.2717,40.902,82.62,74,100,9.06,2023-04-19 20:11:58
629,Thinadhoo,MV,0.5333,72.9333,83.21,72,90,3.69,2023-04-19 20:11:59
630,Manadhoo,MV,5.7667,73.3833,83.03,75,12,3.53,2023-04-19 20:12:00
631,Namtsy,RU,62.7161,129.6658,19.87,96,100,4.65,2023-04-19 20:12:02
632,Lagos,NG,6.5833,3.75,80.04,85,100,1.43,2023-04-19 20:09:25
633,Kigoma,TZ,-4.8769,29.6267,73.38,82,12,6.11,2023-04-19 20:12:04
634,Meulaboh,ID,4.1363,96.1285,73.67,96,100,6.38,2023-04-19 20:12:06
635,Moyo,UG,3.6609,31.7247,71.51,75,74,2.68,2023-04-19 20:12:07
636,Williams Lake,CA,52.1415,-122.1445,48.83,33,5,9.33,2023-04-19 20:12:08
637,Susanville,US,40.4163,-120.653,46.65,39,75,12.66,2023-04-19 20:12:09
638,Clarkston Heights-Vineland,US,46.3874,-117.083,53.76,43,100,12.66,2023-04-19 20:12:10
639,Kulhudhuffushi,MV,6.6221,73.07,83.03,75,74,5.06,2023-04-19 20:12:12
640,Camana,PE,-16.6228,-72.7111,72.21,72,14,6.29,2023-04-19 20:12:13
641,Sarakhs,IR,36.5449,61.1577,56.26,16,0,7.74,2023-04-19 20:12:14
642,Revelstoke,CA,50.9832,-118.2023,49.44,52,100,0.78,2023-04-19 20:12:16
643,Trakai,LT,54.6333,24.9333,55.74,57,99,12.46,2023-04-19 20:12:17
644,Al Qadarif,SD,14.0349,35.3834,90.25,9,0,10.96,2023-04-19 20:12:18
645,Novyy Urgal,RU,51.0736,132.5642,31.89,74,100,4.47,2023-04-19 20:12:19
646,Richards Bay,ZA,-28.783,32.0377,70.12,81,0,10.31,2023-04-19 20:12:20
647,Pangody,RU,65.85,74.4859,9.41,96,100,3.89,2023-04-19 20:12:22
648,Freetown,SL,8.484,-13.2299,81.3,84,55,9.78,2023-04-19 20:12:23
649,Castillos,UY,-34.1667,-53.8333,58.21,77,61,9.98,2023-04-19 20:12:24
650,Mahanoro,MG,-19.9,48.8,73.8,92,27,5.12,2023-04-19 20:12:25
651,Semdinli,TR,37.3051,44.5742,53.64,70,100,4.25,2023-04-19 20:12:27
652,Salalah,OM,17.0151,54.0924,82.49,74,40,4.61,2023-04-19 20:12:28
653,Ulladulla,AU,-35.35,150.4667,58.77,83,100,8.77,2023-04-19 20:12:29
654,Pontotoc,US,34.2479,-88.9987,83.8,44,0,12.62,2023-04-19 20:07:47
655,Argo,GR,37.6333,22.7333,57.78,76,7,4.61,2023-04-19 20:12:32
656,Mahibadhoo,MV,3.7833,72.9667,83.37,69,100,3.76,2023-04-19 20:12:33
657,Tucuma,BR,-0.1833,-50.05,80.15,79,100,5.03,2023-04-19 20:12:34
658,Aleksandrovsk,RU,59.158,57.5624,25.81,39,3,3.53,2023-04-19 20:12:35
659,Salym,RU,60.0625,71.4789,25.93,81,11,8.34,2023-04-19 20:12:36
660,San Angelo,US,31.4638,-100.437,90.95,39,0,15.01,2023-04-19 20:08:44
661,Dingli,MT,35.8614,14.3822,59.81,88,0,6.91,2023-04-19 20:13:39
662,Hilton Head Island,US,32.2163,-80.7526,86.05,50,0,5.75,2023-04-19 20:10:45
663,Mzuzu,MW,-11.4656,34.0207,60.85,97,100,1.72,2023-04-19 20:13:41
664,Freeport,US,40.6576,-73.5832,65.28,39,0,13.0,2023-04-19 20:13:42
665,Swift Current,CA,50.2834,-107.8014,29.21,93,100,21.85,2023-04-19 20:13:44
666,Rosetta,EG,31.4044,30.4164,63.21,75,22,16.51,2023-04-19 20:13:45
667,Yunak,TR,38.8142,31.7322,50.27,64,41,5.57,2023-04-19 20:13:46
668,Bousso,TD,10.4795,16.7117,94.33,27,69,6.44,2023-04-19 20:13:47
669,Kanke,IN,23.4333,85.3167,83.82,18,97,7.83,2023-04-19 20:13:48
670,Novosokol'Niki,RU,56.3463,30.1578,46.15,73,78,6.53,2023-04-19 20:13:49
671,Darwin,AU,-12.4611,130.8418,71.58,88,9,2.3,2023-04-19 20:11:05
672,Olinda,BR,-8.0089,-34.8553,83.93,74,20,8.05,2023-04-19 20:13:52
673,Aars,DK,56.804,9.5144,49.59,64,0,11.07,2023-04-19 20:13:53
674,Lensk,RU,60.7253,114.9278,20.48,83,100,5.68,2023-04-19 20:13:54
675,Tobruk,LY,32.0836,23.9764,61.32,72,0,15.03,2023-04-19 20:13:55
676,Caransebes,RO,45.4167,22.2167,46.44,94,25,2.15,2023-04-19 20:13:56
677,La Punta,AR,-33.1837,-66.3127,71.02,34,2,11.59,2023-04-19 20:13:58
678,Mili,MH,6.0815,171.735,81.88,80,100,14.36,2023-04-19 20:13:59
679,Nurota,UZ,40.5614,65.6886,45.55,41,0,8.88,2023-04-19 20:14:00
680,Eilat,IL,29.5581,34.9482,85.84,35,0,0.0,2023-04-19 20:14:01
681,Leer,DE,53.2316,7.461,48.18,61,0,8.77,2023-04-19 20:14:02
682,Sault Ste. Marie,CA,46.5168,-84.3333,39.76,65,0,8.05,2023-04-19 20:09:12
683,Dabrowa Tarnowska,PL,50.1746,20.9863,47.68,91,88,2.77,2023-04-19 20:14:05
684,Coyhaique,CL,-45.5752,-72.0662,62.55,63,75,8.05,2023-04-19 20:14:06
685,Yangjiang,CN,21.85,111.9667,76.89,97,92,2.73,2023-04-19 20:13:59
686,Xining,CN,36.6167,101.7667,42.69,43,99,5.55,2023-04-19 20:14:09
687,El Alto,PE,-4.2714,-81.2147,87.46,69,95,13.49,2023-04-19 20:14:10
688,Nouadhibou,MR,20.931,-17.0347,67.98,83,66,16.11,2023-04-19 20:14:11
689,Shadrinsk,RU,56.0852,63.6335,35.78,49,0,7.83,2023-04-19 20:14:12
690,Figuig (Centre),MA,32.1089,-1.2286,74.23,22,2,9.73,2023-04-19 20:14:14
691,Matamata,NZ,-37.8106,175.7624,66.38,93,78,3.44,2023-04-19 20:14:15
692,Bulawayo,ZW,-20.15,28.5833,60.19,58,0,10.58,2023-04-19 20:14:16
693,Williams,CA,52.1415,-122.1445,47.97,38,5,9.69,2023-04-19 20:14:18
694,Katsuura,JP,35.1333,140.3,60.82,92,100,8.7,2023-04-19 20:14:19
695,Cide,TR,41.8921,33.0044,53.47,88,96,4.18,2023-04-19 20:14:20
696,Bom Jesus,BR,-9.0744,-44.3586,87.75,49,55,4.32,2023-04-19 20:14:22
697,Labuan Bajo,ID,-8.4964,119.8877,76.32,88,100,6.11,2023-04-19 20:14:23
698,Det Udom,TH,14.906,105.0784,83.73,63,0,9.66,2023-04-19 20:14:24
699,Al Ghayzah,YE,16.2079,52.176,82.49,64,0,10.22,2023-04-19 20:14:25
700,Konduga,NG,11.6558,13.4213,91.87,28,3,5.17,2023-04-19 20:14:27
701,Hacienda Huancane,PE,-15.8222,-70.8856,56.14,16,96,13.67,2023-04-19 20:14:28
702,Cascais,PT,38.6979,-9.4215,63.75,76,20,17.27,2023-04-19 20:14:29
703,Bikenibeu Village,KI,1.3673,173.1241,84.16,79,40,8.05,2023-04-19 20:14:30
